Vers 57
USE_SERIAL_FEEDBACK=false
DEVELOPMENT_MODE=false
USE_RMC_ONLY=false

$GPRMC,153907.600,A,4308.4584,N,07726.3608,W,6.10,342.66,200319,,,A*73
$GPGGA,153907.800,4308.4588,N,07726.3611,W,1,08,0.98,157.6,M,-34.4,M,,*52
lng=-77.439346, lat=43.140975, altitude=157.80, speed=6.10, satellites=8, angle=342.6600, fixquality=1
$GPRMC,153908.000,A,4308.4593,N,07726.3616,W,8.09,330.53,200319,,,A*76
$GPGGA,153908.200,4308.4598,N,07726.3620,W,1,08,0.98,157.5,M,-34.4,M,,*57
lng=-77.439361, lat=43.140991, altitude=157.60, speed=8.09, satellites=8, angle=330.5300, fixquality=1
$GPRMC,153908.400,A,4308.4602,N,07726.3626,W,10.24,320.39,200319,,,A*41
$GPGGA,153908.600,4308.4606,N,07726.3631,W,1,08,0.98,157.4,M,-34.4,M,,*56
lng=-77.439376, lat=43.140998, altitude=157.50, speed=10.24, satellites=8, angle=320.3900, fixquality=1
$GPRMC,153908.800,A,4308.4610,N,07726.3637,W,10.78,314.74,200319,,,A*49
$GPGGA,153909.000,4308.4615,N,07726.3645,W,1,08,0.98,157.4,M,-34.4,M,,*50
lng=-77.439399, lat=43.141014, altitude=157.40, speed=10.78, satellites=8, angle=314.7400, fixquality=1
$GPRMC,153909.200,A,4308.4619,N,07726.3652,W,11.91,306.50,200319,,,A*4B
$GPGGA,153909.400,4308.4622,N,07726.3661,W,1,08,0.98,157.3,M,-34.4,M,,*51
lng=-77.439422, lat=43.141033, altitude=157.40, speed=11.91, satellites=8, angle=306.5000, fixquality=1
$GPRMC,153909.600,A,4308.4626,N,07726.3670,W,13.13,296.33,200319,,,A*46
$GPGGA,153909.800,4308.4629,N,07726.3680,W,1,08,0.98,157.3,M,-34.4,M,,*59
lng=-77.439453, lat=43.141040, altitude=157.30, speed=13.13, satellites=8, angle=296.3300, fixquality=1
$GPRMC,153910.000,A,4308.4632,N,07726.3692,W,15.20,290.52,200319,,,A*46
$GPGGA,153910.200,4308.4635,N,07726.3703,W,1,08,0.98,157.2,M,-34.4,M,,*5D
lng=-77.439483, lat=43.141056, altitude=157.30, speed=15.20, satellites=8, angle=290.5200, fixquality=1
$GPRMC,153910.400,A,4308.4638,N,07726.3715,W,16.62,287.45,200319,,,A*43
$GPGGA,153910.600,4308.4640,N,07726.3728,W,1,08,0.98,157.2,M,-34.4,M,,*52
lng=-77.439529, lat=43.141063, altitude=157.20, speed=16.62, satellites=8, angle=287.4500, fixquality=1
$GPRMC,153910.800,A,4308.4642,N,07726.3741,W,17.70,284.11,200319,,,A*43
$GPGGA,153911.000,4308.4644,N,07726.3755,W,1,08,0.98,157.1,M,-34.4,M,,*58
lng=-77.439567, lat=43.141071, altitude=157.20, speed=17.70, satellites=8, angle=284.1100, fixquality=1
$GPRMC,153911.200,A,4308.4645,N,07726.3770,W,18.70,280.79,200319,,,A*48
$GPGGA,153911.400,4308.4647,N,07726.3785,W,1,08,0.98,157.1,M,-34.4,M,,*52
lng=-77.439613, lat=43.141071, altitude=157.10, speed=18.70, satellites=8, angle=280.7900, fixquality=1
$GPRMC,153911.600,A,4308.4648,N,07726.3800,W,19.68,279.81,200319,,,A*40
$GPGGA,153911.800,4308.4650,N,07726.3816,W,1,08,0.98,157.1,M,-34.4,M,,*5D
lng=-77.439666, lat=43.141078, altitude=157.10, speed=19.68, satellites=8, angle=279.8100, fixquality=1
$GPRMC,153912.000,A,4308.4652,N,07726.3831,W,20.61,279.16,200319,,,A*41
$GPGGA,153912.200,4308.4653,N,07726.3848,W,1,08,0.98,157.1,M,-34.4,M,,*5C
lng=-77.439720, lat=43.141090, altitude=157.10, speed=20.61, satellites=8, angle=279.1600, fixquality=1
$GPRMC,153912.400,A,4308.4655,N,07726.3864,W,21.45,278.51,200319,,,A*47
$GPGGA,153912.600,4308.4656,N,07726.3881,W,1,08,0.98,157.0,M,-34.4,M,,*59
lng=-77.439773, lat=43.141090, altitude=157.10, speed=21.45, satellites=8, angle=278.5100, fixquality=1
$GPRMC,153912.800,A,4308.4658,N,07726.3897,W,21.68,277.62,200319,,,A*4A
$GPGGA,153913.000,4308.4659,N,07726.3914,W,1,08,0.98,157.0,M,-34.4,M,,*5C
lng=-77.439826, lat=43.141098, altitude=157.00, speed=21.68, satellites=8, angle=277.6200, fixquality=1
$GPRMC,153913.200,A,4308.4660,N,07726.3930,W,21.75,276.78,200319,,,A*40
$GPGGA,153913.400,4308.4662,N,07726.3947,W,1,08,0.98,157.0,M,-34.4,M,,*56
lng=-77.439888, lat=43.141098, altitude=157.00, speed=21.75, satellites=8, angle=276.7800, fixquality=1
$GPRMC,153913.600,A,4308.4663,N,07726.3964,W,21.85,276.71,200319,,,A*40
$GPGGA,153913.800,4308.4664,N,07726.3980,W,1,08,0.98,156.9,M,-34.4,M,,*5F
lng=-77.439941, lat=43.141105, altitude=157.00, speed=21.85, satellites=8, angle=276.7100, fixquality=1
$GPRMC,153914.000,A,4308.4666,N,07726.3997,W,21.93,276.74,200319,,,A*4A
$GPGGA,153914.200,4308.4668,N,07726.4014,W,1,08,0.98,156.9,M,-34.4,M,,*5D
lng=-77.439994, lat=43.141113, altitude=156.90, speed=21.93, satellites=8, angle=276.7400, fixquality=1
$GPRMC,153914.400,A,4308.4669,N,07726.4030,W,21.85,276.25,200319,,,A*41
$GPGGA,153914.600,4308.4670,N,07726.4046,W,1,08,0.98,156.9,M,-34.4,M,,*57
lng=-77.440048, lat=43.141113, altitude=156.90, speed=21.85, satellites=8, angle=276.2500, fixquality=1
